{
  "1003620": {
    "lat": 37.121828,
    "lng": 128.563267,
    "name": "영월군(옥동교)",
    "poi": "옥동교",
    "address": "강원특별자치도 영월군 김삿갓면 옥동리 628",
    "distanceM": 91
  },
  "1003646": {
    "lat": 36.933549,
    "lng": 128.319008,
    "name": "우화교",
    "poi": "우화교",
    "address": "충청북도 단양군 단성면 중방리 314유",
    "distanceM": 382
  },
  "1003662": {
    "lat": 37.070419,
    "lng": 128.030475,
    "name": "명서교",
    "poi": "명서교",
    "address": "충청북도 충주시 산척면 명서리 산 30-1천",
    "distanceM": 344
  },
  "1004635": {
    "lat": 36.704749,
    "lng": 127.812146,
    "name": "후영교",
    "poi": "후영교",
    "address": "충청북도 괴산군 청천면 후영리 499천",
    "distanceM": 426
  },
  "1005697": {
    "lat": 37.204685,
    "lng": 127.745309,
    "name": "원주시(남한강대교)",
    "poi": "남한강대교",
    "address": "충청북도 충주시 앙성면 단암리 679천",
    "distanceM": 270
  },
  "1006680": {
    "lat": 37.362348,
    "lng": 127.832663,
    "name": "원주시(지정대교)",
    "poi": "지정대교",
    "address": "강원특별자치도 원주시 지정면 간현리 1116",
    "distanceM": 116
  },
  "1007625": {
    "lat": 37.25473,
    "lng": 127.683814,
    "name": "여주시(남한강교)",
    "poi": "남한강교",
    "address": "경기도 여주시 강천면 적금리 601 천",
    "distanceM": 241
  },
  "1007640": {
    "lat": 37.32405,
    "lng": 127.566702,
    "name": "여주시(율극교)",
    "poi": "율극교",
    "address": "경기도 여주시 흥천면 율극리 355-2도",
    "distanceM": 1241
  },
  "1007650": {
    "lat": 37.332451,
    "lng": 127.535931,
    "name": "여주시(흥천대교)",
    "poi": "흥천대교",
    "address": "경기도 여주시 흥천면 다대리 546-6 천",
    "distanceM": 89
  },
  "1007685": {
    "lat": 37.485088,
    "lng": 127.488308,
    "name": "양평군(양평교)",
    "poi": "양평교",
    "address": "경기도 양평군 강상면 교평리 352-5천",
    "distanceM": 208
  },
  "1010635": {
    "lat": 38.110725,
    "lng": 127.982457,
    "name": "하리교",
    "poi": "하리교",
    "address": "강원특별자치도 양구군 양구읍 하리 112-2",
    "distanceM": 360
  },
  "1010677": {
    "lat": 38.112484,
    "lng": 127.701771,
    "name": "용신교",
    "poi": "용신교",
    "address": "강원특별자치도 화천군 화천읍 상리 328",
    "distanceM": 463
  },
  "1010680": {
    "lat": 38.100705,
    "lng": 127.70849,
    "name": "화천군(화천대교)",
    "poi": "화천대교",
    "address": "강원특별자치도 화천군 하남면 위라리 525",
    "distanceM": 266
  },
  "1011695": {
    "lat": 38.08846,
    "lng": 128.181209,
    "name": "인제군(리빙스턴교)",
    "poi": "리빙스턴교",
    "address": "강원특별자치도 인제군 인제읍 합강리 156-5",
    "distanceM": 186
  },
  "1013637": {
    "lat": 37.896246,
    "lng": 127.727607,
    "name": "춘천시(소양2교)",
    "poi": "소양2교",
    "address": "강원특별자치도 춘천시 우두동 766-3",
    "distanceM": 572
  },
  "1014665": {
    "lat": 37.674926,
    "lng": 127.771653,
    "name": "홍천군(남노일대교)",
    "poi": "남노일대교",
    "address": "강원특별자치도 홍천군 남면 남노일리 371",
    "distanceM": 104
  },
  "1014690": {
    "lat": 37.726652,
    "lng": 127.5893,
    "name": "춘천시(충의대교)",
    "poi": "충의대교",
    "address": "강원특별자치도 춘천시 남면 발산리 816-8",
    "distanceM": 98
  },
  "1014695": {
    "lat": 37.675711,
    "lng": 127.611365,
    "name": "한덕교",
    "poi": "한덕교",
    "address": "강원특별자치도 춘천시 남면 한덕리 130",
    "distanceM": 425
  },
  "1015645": {
    "lat": 37.721633,
    "lng": 127.406657,
    "name": "가평군(신청평대교)",
    "poi": "신청평대교",
    "address": "경기도 가평군 청평면 대성리 32-9천",
    "distanceM": 509
  },
  "1016607": {
    "lat": 37.338244,
    "lng": 127.237436,
    "name": "용인시(월촌교)",
    "poi": "월촌교",
    "address": "경기도 용인시 처인구 모현읍 일산리 229-1천",
    "distanceM": 663
  },
  "1016650": {
    "lat": 37.405928,
    "lng": 127.263339,
    "name": "광주시(경안교)",
    "poi": "경안교",
    "address": "경기도 광주시 역동 220천",
    "distanceM": 86
  },
  "1018638": {
    "lat": 37.60405,
    "lng": 127.14896,
    "name": "남양주시(왕숙교)",
    "poi": "왕숙교",
    "address": "경기도 남양주시 다산동  4155-7",
    "distanceM": 93
  },
  "1018640": {
    "lat": 37.544302,
    "lng": 127.114723,
    "name": "서울시(광진교)",
    "poi": "광진교",
    "address": "서울특별시 강동구 천호동 484-9천",
    "distanceM": 416
  },
  "1018650": {
    "lat": 37.373025,
    "lng": 127.108956,
    "name": "성남시(궁내교)",
    "poi": "궁내교",
    "address": "경기도 성남시 분당구 정자동 100-3천",
    "distanceM": 341
  },
  "1018658": {
    "lat": 37.497647,
    "lng": 127.07375,
    "name": "서울시(대치교)",
    "poi": "대치교",
    "address": "서울특별시 강남구 대치동 10천",
    "distanceM": 98
  },
  "1018662": {
    "lat": 37.53106,
    "lng": 127.065476,
    "name": "서울시(청담대교)",
    "poi": "청담대교",
    "address": "서울특별시 광진구 강변북로 2202 서울특별시 광진구 자양동  97-5",
    "distanceM": 921
  },
  "1018683": {
    "lat": 37.515347,
    "lng": 126.957473,
    "name": "서울시(한강대교)",
    "poi": "한강대교",
    "address": "서울특별시 용산구 이촌동 327천",
    "distanceM": 123
  },
  "1018686": {
    "lat": 37.57663,
    "lng": 126.927572,
    "name": "서울시(홍남교)",
    "poi": "홍남교",
    "address": "서울특별시 서대문구 홍은동 422-8도",
    "distanceM": 183
  },
  "1018693": {
    "lat": 37.452593,
    "lng": 126.89524,
    "name": "광명시(시흥대교)",
    "poi": "시흥대교",
    "address": "서울특별시 금천구 시흥동 765",
    "distanceM": 173
  },
  "1019648": {
    "lat": 37.573063,
    "lng": 126.738525,
    "name": "계양대교",
    "poi": "계양대교",
    "address": "인천광역시 계양구 귤현동  451-514",
    "distanceM": 694
  },
  "1101650": {
    "lat": 37.124122,
    "lng": 127.001426,
    "name": "화성시(수직교)",
    "poi": "수직교",
    "address": "경기도 평택시 서탄면 내천리 669-3도",
    "distanceM": 161
  },
  "1101670": {
    "lat": 37.052672,
    "lng": 126.995778,
    "name": "평택시(동연교)",
    "poi": "동연교",
    "address": "경기도 평택시 고덕면 동청리 597-11 천",
    "distanceM": 154
  },
  "1301630": {
    "lat": 38.054494,
    "lng": 128.607356,
    "name": "양양군(용천2교)",
    "poi": "용천2교",
    "address": "강원특별자치도 양양군 서면 용천리 744",
    "distanceM": 133
  },
  "1301632": {
    "lat": 38.070132,
    "lng": 128.607231,
    "name": "양양군(북평교)",
    "poi": "북평교",
    "address": "강원특별자치도 양양군 양양읍 임천리 440",
    "distanceM": 119
  },
  "1301658": {
    "lat": 38.076485,
    "lng": 128.63036,
    "name": "양양군(양양대교)",
    "poi": "양양대교",
    "address": "강원특별자치도 양양군 양양읍 일출로 540 강원특별자치도 양양군 양양읍 연창리 283",
    "distanceM": 176
  },
  "2002630": {
    "lat": 36.484141,
    "lng": 129.022834,
    "name": "청송군(송강2교)",
    "poi": "송강2교",
    "address": "경상북도 청송군 파천면 신기리 728 유",
    "distanceM": 108
  },
  "2002645": {
    "lat": 36.534778,
    "lng": 129.043238,
    "name": "청송군(광덕교)",
    "poi": "광덕교",
    "address": "경상북도 청송군 진보면 각산리 367 유",
    "distanceM": 148
  },
  "2002692": {
    "lat": 36.536463,
    "lng": 128.795775,
    "name": "안동시(포진교)",
    "poi": "포진교",
    "address": "경상북도 안동시 남선면 이천리 829-1천",
    "distanceM": 199
  },
  "2014690": {
    "lat": 35.610825,
    "lng": 128.358807,
    "name": "합천군(율지교)",
    "poi": "율지교",
    "address": "경상남도 창녕군 이방면 장천리 1169천",
    "distanceM": 161
  },
  "2016660": {
    "lat": 35.61308,
    "lng": 128.220386,
    "name": "합천군(기리교)",
    "poi": "기리교",
    "address": "경상남도 합천군 율곡면 두사리 562천",
    "distanceM": 104
  },
  "2017620": {
    "lat": 35.51487,
    "lng": 128.374099,
    "name": "합천군(적포교)",
    "poi": "적포교",
    "address": "경상남도 합천군 청덕면 동부로 2501 경상남도 합천군 청덕면 앙진리 1",
    "distanceM": 1949
  },
  "2017630": {
    "lat": 35.48429,
    "lng": 128.347427,
    "name": "의령군(대곡교)",
    "poi": "대곡교",
    "address": "경상남도 의령군 부림면 감암리 172-2 전",
    "distanceM": 137
  },
  "2020640": {
    "lat": 35.381644,
    "lng": 128.521607,
    "name": "함안군(소랑교)",
    "poi": "소랑교",
    "address": "경상남도 함안군 칠서면 이룡리 25-1 전",
    "distanceM": 86
  },
  "2020675": {
    "lat": 35.366514,
    "lng": 128.714563,
    "name": "창원시(수산대교)",
    "poi": "수산대교",
    "address": "경상남도 창원시 의창구 대산면 모산리 701천",
    "distanceM": 142
  },
  "2022670": {
    "lat": 35.288739,
    "lng": 129.012677,
    "name": "양산시(호포대교)",
    "poi": "호포대교",
    "address": "경상남도 양산시 물금읍 증산리 1133-13천",
    "distanceM": 141
  },
  "2022678": {
    "lat": 35.226108,
    "lng": 128.976814,
    "name": "부산시(대동낙동강교)",
    "poi": "대동낙동강교",
    "address": "부산광역시 강서구 공항로 1516 부산광역시 강서구 대저1동  670-1",
    "distanceM": 139
  },
  "2022680": {
    "lat": 35.207147,
    "lng": 128.989177,
    "name": "부산시(구포대교)",
    "poi": "구포대교",
    "address": "부산광역시 강서구 대저1동 1-5 천",
    "distanceM": 545
  },
  "2022692": {
    "lat": 35.140351,
    "lng": 128.978904,
    "name": "부산시(학장3호교)",
    "poi": "학장3호교",
    "address": "부산광역시 사상구 학장동  586",
    "distanceM": 662
  },
  "2302655": {
    "lat": 35.197567,
    "lng": 129.083532,
    "name": "부산시(세병교)",
    "poi": "세병교",
    "address": "부산광역시 동래구 명륜로 33 부산광역시 동래구 수안동 11-24",
    "distanceM": 121
  },
  "3006680": {
    "lat": 36.240291,
    "lng": 127.669582,
    "name": "옥천군(이원대교)",
    "poi": "이원대교",
    "address": "충청북도 옥천군 이원면 백지리 937천",
    "distanceM": 187
  },
  "3008670": {
    "lat": 36.110889,
    "lng": 127.551305,
    "name": "금산군(제원교)",
    "poi": "제원교",
    "address": "충청남도 금산군 제원면 제원리 501-36",
    "distanceM": 158
  },
  "3011630": {
    "lat": 36.768941,
    "lng": 127.50753,
    "name": "청주시(여암교)",
    "poi": "여암교",
    "address": "충청북도 청주시 청원구 오창읍 여천리 553-9 천",
    "distanceM": 387
  },
  "3011633": {
    "lat": 36.749149,
    "lng": 127.450233,
    "name": "청주시(복현교)",
    "poi": "복현교",
    "address": "충청북도 청주시 청원구 오창읍 복현리 455-12",
    "distanceM": 257
  },
  "3014610": {
    "lat": 36.155269,
    "lng": 127.003843,
    "name": "논산시(황산대교)",
    "poi": "황산대교",
    "address": "충청남도 논산시 강경읍 황산리 198 천",
    "distanceM": 340
  },
  "3014639": {
    "lat": 36.1289,
    "lng": 126.926784,
    "name": "익산시(난포교)",
    "poi": "난포교",
    "address": "전북특별자치도 익산시 성당면 성당리 224-2",
    "distanceM": 91
  },
  "4006680": {
    "lat": 35.194682,
    "lng": 127.376649,
    "name": "곡성군(예성교)",
    "poi": "예성교",
    "address": "전라남도 구례군 구례읍 계산리 1583천",
    "distanceM": 492
  },
  "4009608": {
    "lat": 35.148781,
    "lng": 127.46368,
    "name": "순천시(용서교)",
    "poi": "용서교",
    "address": "전라남도 순천시 황전면 금평리 821-46 천",
    "distanceM": 80
  },
  "4009618": {
    "lat": 35.197409,
    "lng": 127.473162,
    "name": "구례군(문척교)",
    "poi": "문척교",
    "address": "전라남도 구례군 문척면 월전리 1372-1천",
    "distanceM": 163
  },
  "4009640": {
    "lat": 35.185742,
    "lng": 127.623126,
    "name": "광양시(남도대교)",
    "poi": "남도대교",
    "address": "경상남도 하동군 화개면 탑리 876천",
    "distanceM": 610
  },
  "4105665": {
    "lat": 35.016362,
    "lng": 127.72293,
    "name": "광양시(지원교)",
    "poi": "지원교",
    "address": "전라남도 광양시 진상면 섬거리 1530-23도",
    "distanceM": 492
  },
  "4105670": {
    "lat": 34.9887,
    "lng": 127.723383,
    "name": "광양시(수어천교)",
    "poi": "수어천교",
    "address": "전라남도 광양시 진상면 금이리 6-4도",
    "distanceM": 720
  },
  "5004620": {
    "lat": 35.069641,
    "lng": 126.776376,
    "name": "광주특별시(승용교)",
    "poi": "승용교",
    "address": "광주광역시 남구 양촌동  625",
    "distanceM": 412
  },
  "5004670": {
    "lat": 35.001545,
    "lng": 126.709172,
    "name": "나주시(영산교)",
    "poi": "영산교",
    "address": "전라남도 나주시 삼영동 117-5 도",
    "distanceM": 501
  },
  "5005680": {
    "lat": 35.036335,
    "lng": 126.591653,
    "name": "함평군(원고막교)",
    "poi": "원고막교",
    "address": "전라남도 나주시 문평면 산호리 420-1 천",
    "distanceM": 128
  },
  "5006610": {
    "lat": 34.982298,
    "lng": 126.547009,
    "name": "함평군(동강교)",
    "poi": "동강교",
    "address": "전라남도 나주시 동강면 운산리 899 천",
    "distanceM": 246
  },
  "5006630": {
    "lat": 35.019342,
    "lng": 126.528522,
    "name": "함평군(학야교)",
    "poi": "학야교",
    "address": "전라남도 함평군 엄다면 학야리 37답",
    "distanceM": 83
  },
  "5006670": {
    "lat": 34.898795,
    "lng": 126.530256,
    "name": "무안군(몽탄대교)",
    "poi": "몽탄대교",
    "address": "",
    "distanceM": 985
  }
}